"id","created","modified","name1","name2","keywords","lat","lon"
1017,"2016-06-30 10:34:08.0","2017-09-01 09:13:14.0","Academic Surge B","220 Tower Road","PC,Audacity,Adobe Acrobat Distiller,Adobe AfterEffects,Adobe Bridge,Adobe Dreamweaver,Adobe ExtendScript Toolkit,Adobe Fireworks,Adobe Illustrator,Adobe InDesign,Adobe Media Encoder,Adobe Photoshop,Adobe Premier Pro,AutoCAD,Microsoft Access,Microsoft OneNote,Microsoft PowerPoint,Microsoft Publisher,Microsoft Word,SSH Secure Shell,Matlab,Minitab,R,Stella,Microsoft Excel,CIT,Premier AT",42.447735,-76.478368
997,"2011-07-06 12:06:29.0","2017-08-31 12:16:10.0","ACCEL - 104 Blue Room","104 Carpenter Hall","PC,Adobe Acrobat Distiller,AutoCAD,Microsoft OneNote,Microsoft PowerPoint,Microsoft Publisher,ANSYS,CES EduPack,Comsol,Matlab,National Instruments LabView,Solidworks,Minitab,Stella,Microsoft Excel,Scanner,Net-Print Black and White,Net-Print Color,CIT,SSH Secure Shell,Microsoft Access,Microsoft Word,Premier AT,Adobe Bridge,Adobe Dreamweaver,Adobe ExtendScript Toolkit,Adobe Extension Manager,Adobe Fireworks,Adobe Illustrator,Adobe InDesign,Adobe Media Encoder,Adobe Photoshop,Adobe Premier Pro,Adobe AfterEffects,R",42.444797,-76.484306
1030,"2016-07-06 10:39:32.0","2017-08-31 12:15:54.0","ACCEL - Green Room","237 Green Room","PC,Audacity,Adobe Acrobat Distiller,Adobe AfterEffects,Adobe Bridge,Adobe Dreamweaver,Adobe ExtendScript Toolkit,Adobe Extension Manager,Adobe Fireworks,Adobe Illustrator,Adobe InDesign,Adobe Media Encoder,Adobe Photoshop,Adobe Premier Pro,Google Sketchup,Microsoft Access,Microsoft InfoPath,Microsoft OneNote,Microsoft PowerPoint,Microsoft Publisher,Microsoft Word,SSH Secure Shell,ANSYS,CES EduPack,Comsol,Matlab,National Instruments LabView,Solidworks,Minitab,Stella,Microsoft Excel,Net-Print Black and White,Net-Print Color,CIT,Premier AT,AutoCAD",42.444799,-76.484269
1031,"2016-07-06 10:44:57.0","2017-08-31 12:20:42.0","ACCEL - Orange Room","236 Orange Room","PC,Audacity,Adobe Acrobat Distiller,Adobe Acrobat Professional,Adobe AfterEffects,Adobe Bridge,Adobe Dreamweaver,Adobe ExtendScript Toolkit,Adobe Fireworks,Adobe Illustrator,Adobe InDesign,Adobe Media Encoder,Adobe Photoshop,Adobe Premier Pro,AutoCAD,Microsoft Access,Microsoft OneNote,Microsoft PowerPoint,Microsoft Publisher,Microsoft Word,SSH Secure Shell,ANSYS,CES EduPack,Comsol,Matlab,National Instruments LabView,Solidworks,Minitab,Stella,Microsoft Excel,Net-Print Black and White,Net-Print Color,CIT,Premier AT,R",42.444803,-76.48424
1032,"2016-07-06 10:48:54.0","2017-08-31 12:23:08.0","ACCEL - Red Room","235 Carpenter Hall","PC,Audacity,Adobe Acrobat Distiller,Adobe AfterEffects,Adobe Bridge,Adobe Dreamweaver,Adobe ExtendScript Toolkit,Adobe Fireworks,Adobe Illustrator,Adobe InDesign,Adobe Media Encoder,Adobe Photoshop,Adobe Premier Pro,AutoCAD,Microsoft Access,Microsoft OneNote,Microsoft PowerPoint,Microsoft Publisher,Microsoft Word,SSH Secure Shell,ANSYS,CES EduPack,Comsol,Matlab,National Instruments LabView,Solidworks,Minitab,Stella,Microsoft Excel,Net-Print Black and White,Net-Print Color,CIT,Premier AT,R",42.444809,-76.484212
1015,"2016-06-30 09:52:25.0","2017-08-31 12:15:39.0","Accel - Sunset Room","First Floor","PC,Audacity,Adobe Acrobat Distiller,Adobe AfterEffects,Adobe Bridge,Adobe Dreamweaver,Adobe Fireworks,Adobe Illustrator,Adobe InDesign,Adobe Media Encoder,Adobe Photoshop,Microsoft Access,Microsoft OneNote,Microsoft PowerPoint,Microsoft Publisher,Microsoft Word,SSH Secure Shell,ANSYS,CES EduPack,Comsol,Matlab,National Instruments LabView,Solidworks,Minitab,Stella,Microsoft Excel,Scanner,Net-Print Black and White,Net-Print Color,CIT,Premier AT,Adobe ExtendScript Toolkit,Adobe Extension Manager,AutoCAD,R,Logism",42.444741,-76.484149
759,"2010-05-11 18:00:15.0","2018-08-28 11:44:07.0","Africana Library","Africana Library","PC,Adobe Acrobat Reader,Microsoft Access,Microsoft PowerPoint,Microsoft Word,Microsoft Excel,Net-Print Black and White,CU Library,Windows Media Player,Notetab Light,Asian Reading/Writing,Laptops,VideoLAN,Google Sketchup,Microsoft InfoPath,Microsoft OneNote,Google Earth,R,Scanner,Microsoft Publisher,Premier AT,Adobe Acrobat Distiller,Adobe Acrobat Professional,Adobe AfterEffects,Adobe Bridge,Adobe Dreamweaver,Adobe Fireworks,Adobe Flash Professional,Adobe Illustrator,Adobe InDesign,Adobe Media Encoder,Adobe Photoshop,Adobe Premier Pro,STATA/Intercooled,Jaws",42.45737,-76.482173
1007,"2016-06-30 08:53:45.0","2016-08-19 10:37:57.0","Alice Cook House",,"PC,Adobe Acrobat Professional,Adobe Bridge,Adobe Dreamweaver,Adobe Illustrator,Adobe InDesign,Adobe Photoshop,Microsoft Access,Microsoft PowerPoint,Microsoft Word,Minitab,Microsoft Excel,CIT",42.448981,-76.489611
792,"2010-07-01 15:58:45.0","2016-08-19 10:36:26.0","Appel CIT Lab","Appel Commons","PC,Windows Media Player,Adobe Acrobat Professional,Microsoft Access,Microsoft Groove,Microsoft InfoPath,Microsoft OneNote,Microsoft PowerPoint,Microsoft Publisher,Microsoft Word,SSH Secure Shell,Minitab,Microsoft Excel,Net-Print Black and White,Net-Print Color,CIT",42.45364,-76.47613
1006,"2016-06-30 08:47:04.0","2016-08-19 10:39:56.0","Carl Becker House","Becker House, Ithaca NY 14853","Net-Print Black and White,CIT,PC",42.446351,-76.490202
787,"2010-06-14 13:21:31.0","2018-08-28 11:20:12.0","Catherwood Library","ILR Complex - Tower Road","ILR,Adobe Acrobat Professional,Microsoft Access,Microsoft InfoPath,Microsoft OneNote,Microsoft PowerPoint,Microsoft Publisher,Microsoft Word,Minitab,R,Microsoft Excel,Net-Print Black and White,Net-Print Color,STATA/Intercooled,Premier AT,Jaws,PC,Adobe Dreamweaver,Adobe Flash Professional,Adobe Illustrator,Adobe InDesign,Adobe Photoshop,Adobe Premier Pro,Adobe Acrobat Reader,Google Earth,Asian Reading/Writing,Miktex,CU Library,Adobe AfterEffects,Adobe Bridge,Adobe Fireworks,Adobe Media Encoder",42.447,-76.480345
758,"2010-05-11 16:19:57.0","2018-08-28 11:45:01.0","Fine Arts Library","Fine Arts Library","PC,Mac,Adobe Acrobat Reader,Microsoft Access,Microsoft PowerPoint,Microsoft Word,Microsoft Excel,Scanner,Net-Print Black and White,Net-Print Color,CU Library,Windows Media Player,Notetab Light,Asian Reading/Writing,Laptops,VideoLAN,Google Sketchup,Microsoft InfoPath,Microsoft OneNote,Google Earth,R,Microsoft Publisher,Premier AT,Adobe Acrobat Distiller,Adobe Acrobat Professional,Adobe AfterEffects,Adobe Bridge,Adobe Dreamweaver,Adobe Extension Manager,Adobe Fireworks,Adobe Flash Professional,Adobe Illustrator,Adobe InDesign,Adobe Media Encoder,Adobe Photoshop,Adobe Premier Pro,STATA/Intercooled,Jaws",42.450935,-76.484147
1004,"2016-06-30 08:30:01.0","2016-08-19 10:39:30.0","Keeton House",,"PC,Adobe Acrobat Professional,Adobe Bridge,Adobe Dreamweaver,Adobe Illustrator,Adobe InDesign,Adobe Photoshop,Microsoft Access,Microsoft PowerPoint,Microsoft Word,Minitab,Microsoft Excel,CIT",42.446719,-76.489496
757,"2010-05-11 16:17:42.0","2018-08-28 11:33:42.0","Kroch Library","Kroch Library","PC,Adobe Acrobat Reader,Microsoft Access,Microsoft PowerPoint,Microsoft Word,Microsoft Excel,Scanner,Net-Print Black and White,CU Library,Windows Media Player,Notetab Light,Asian Reading/Writing,VideoLAN,Microsoft InfoPath,Microsoft OneNote,Microsoft Publisher,R,Google Sketchup,Google Earth,Premier AT,Adobe Acrobat Distiller,Adobe Acrobat Professional,Adobe AfterEffects,Adobe Bridge,Adobe Dreamweaver,Adobe Extension Manager,Adobe Fireworks,Adobe Flash Professional,Adobe Illustrator,Adobe InDesign,Adobe Media Encoder,Adobe Photoshop,Adobe Premier Pro,Adobe ExtendScript Toolkit,Miktex,STATA/Intercooled,Jaws",42.447977,-76.48386
802,"2010-08-10 16:16:21.0","2012-09-26 10:06:17.0","Language Resource Center","Noyes Lodge","Language Resource Center",42.452167,-76.480173
764,"2010-05-11 18:07:05.0","2018-08-28 11:34:26.0","Law Library","Law Library","PC,Adobe Acrobat Reader,Microsoft Access,Microsoft PowerPoint,Microsoft Word,Microsoft Excel,Scanner,Net-Print Black and White,CU Library,Laptops,Mac,VideoLAN,Windows Media Player,Adobe Acrobat Professional,Google Sketchup,Notetab Light,Google Earth,R,Asian Reading/Writing,Microsoft InfoPath,Microsoft OneNote,Microsoft Publisher,Premier AT,Jaws,Adobe Acrobat Distiller,Adobe AfterEffects,Adobe Bridge,Adobe Dreamweaver,Adobe Fireworks,Adobe Flash Professional,Adobe Illustrator,Adobe InDesign,Adobe Media Encoder,Adobe Photoshop,Adobe Premier Pro,Photoshop Elements,Miktex,STATA/Intercooled",42.443976,-76.485842
760,"2010-05-11 18:01:48.0","2016-02-01 12:46:15.0","Library Annex","Library Annex","PC,Adobe Acrobat Reader,Microsoft Access,Microsoft PowerPoint,Microsoft Word,Microsoft Excel,Scanner,Net-Print Black and White,CU Library,Windows Media Player,Asian Reading/Writing",42.442846,-76.457853
1024,"2016-06-30 11:12:03.0","2016-07-06 11:00:33.0","MAE Rhodes Hall","106 Rhodes Hall","CIT,PC",42.443334,-76.481658
1026,"2016-07-06 10:24:23.0","2016-07-06 11:02:15.0","MAE Rhodes Hall","114 Rhodes Hall","PC,CIT",42.443342,-76.481633
1027,"2016-07-06 10:28:54.0","2016-07-06 11:01:03.0","MAE Rhodes Hall","116 Rhodes Hall, Emerson","CIT",42.443348,-76.48162
1028,"2016-07-06 10:29:53.0","2016-07-06 11:00:53.0","MAE Rhodes Hall","169 Rhodes Hall","PC,CIT",42.443342,-76.481645
1029,"2016-07-06 10:31:12.0","2016-07-06 11:00:43.0","MAE Rhodes Hall","155 Rhodes Hall","PC,CIT",42.443335,-76.481635
1037,"2016-07-06 14:50:22.0","2016-07-07 08:46:37.0","MAE Thurston Hall","101 Thurston Hall","CIT",42.443456,-76.484319
1038,"2016-07-06 14:51:06.0","2016-07-07 08:47:01.0","MAE Thurston Hall","101A Thurston Hall","CIT",42.443524,-76.484179
1039,"2016-07-06 14:51:41.0","2016-07-07 08:46:18.0","MAE Thurston Hall","102A Thurston Hall","CIT",42.443429,-76.48419
1040,"2016-07-06 14:52:52.0","2016-07-07 08:46:50.0","MAE Thurston Hall","103 Thurston Hall","CIT",42.443519,-76.484247
1035,"2016-07-06 11:17:07.0","2016-07-06 11:17:31.0","MAE Upson Hall","#TBD Wind Tunnel","PC,CIT",42.443986,-76.482576
762,"2010-05-11 18:05:15.0","2018-08-28 11:34:02.0","Management Library","Management Library","PC,Adobe Acrobat Reader,Microsoft Access,Microsoft PowerPoint,Microsoft Word,Microsoft Excel,Scanner,Net-Print Black and White,CU Library,R,SAS,VideoLAN,Windows Media Player,Google Sketchup,Microsoft OneNote,Google Earth,Asian Reading/Writing,Net-Print Color,Premier AT,Adobe Acrobat Distiller,Adobe Acrobat Professional,Adobe AfterEffects,Adobe Bridge,Adobe Dreamweaver,Adobe Extension Manager,Adobe Fireworks,Adobe Flash Professional,Adobe Illustrator,Adobe InDesign,Adobe Media Encoder,Adobe Photoshop,Adobe Premier Pro,Miktex,STATA/Intercooled,Jaws",42.445995,-76.483181
999,"2012-05-29 15:35:36.0","2018-08-28 11:51:34.0","Mann Library","Mann Circulation Desk","Mac,PC,iTunes,VideoLAN,Windows Media Player,Adobe Acrobat Reader,Microsoft Access,Microsoft OneNote,Microsoft PowerPoint,Microsoft Publisher,Microsoft Word,Microsoft Excel,Scanner,Plotter,Net-Print Black and White,Net-Print Color,CU Library,Laptops,Adobe Acrobat Distiller,Adobe Acrobat Professional,Adobe AfterEffects,Adobe Bridge,Adobe Dreamweaver,Adobe Extension Manager,Adobe Fireworks,Adobe Illustrator,Adobe InDesign,Adobe Media Encoder,Adobe Photoshop,Adobe Premier Pro,AutoCAD,Google Sketchup,ArcGIS,Google Earth,R,Endnote,Tropcrop,Miktex,STATA/Intercooled,Premier AT,Stella,Jaws",42.448795,-76.476329
1036,"2016-07-06 14:44:06.0","2016-08-19 10:45:16.0","Mann Library","101 Mann Library","CIT",42.448672,-76.476284
803,"2010-08-10 16:51:12.0","2018-10-01 13:13:53.0","Mann Library - B30A PC Classroom","B30A Mann Library","PC,VideoLAN,Windows Media Player,Adobe Acrobat Distiller,Adobe Acrobat Professional,Adobe Bridge,Adobe Device Central,Adobe Dreamweaver,Adobe Drive,Adobe ExtendScript Toolkit,Adobe Extension Manager,Adobe Fireworks,Adobe Illustrator,Adobe InDesign,Adobe Photoshop,Google Sketchup,Microsoft PowerPoint,Microsoft Word,ArcGIS,Google Earth,R,Tropcrop,Microsoft Excel,Net-Print Black and White,Net-Print Color,Adobe Flash Professional,AutoCAD,Microsoft Access,Microsoft InfoPath,Microsoft OneNote,Microsoft Publisher,CU Library,STATA/Intercooled,Endnote,iTunes,Adobe Media Encoder,Adobe Media Player,Adobe Premier Pro,Stella,Miktex,Premier AT,Jaws",42.44872,-76.476039
801,"2010-08-09 16:22:47.0","2018-10-01 13:14:09.0","Mann Library - B30B PC Classroom","B30B Mann Library","PC,Google Sketchup,Microsoft PowerPoint,Microsoft Word,Microsoft Excel,Net-Print Black and White,Net-Print Color,VideoLAN,Adobe Acrobat Distiller,Adobe Acrobat Professional,Adobe Bridge,Adobe Device Central,Adobe Dreamweaver,Adobe Drive,Adobe ExtendScript Toolkit,Adobe Extension Manager,Adobe Fireworks,Adobe Flash Professional,Adobe Illustrator,Adobe InDesign,Adobe LifeCycle Designer,Adobe Media Encoder,Adobe Photoshop,Adobe Pixel Bender Toolkit,AutoCAD,ArcGIS,Google Earth,R,Tropcrop,Windows Media Player,Microsoft Access,Microsoft InfoPath,Microsoft OneNote,Microsoft Publisher,Endnote,CU Library,STATA/Intercooled,Adobe Media Player,Stella,Miktex,Premier AT,Adobe Premier Pro,Adobe Acrobat Reader,Jaws",42.448822,-76.476055
804,"2010-08-10 17:03:19.0","2018-10-01 13:13:29.0","Mann Library - Stone Classroom","103 Mann Library","PC,VideoLAN,Adobe Acrobat Distiller,Adobe Acrobat Professional,Adobe Bridge,Adobe Dreamweaver,Adobe Drive,Adobe ExtendScript Toolkit,Adobe Extension Manager,Adobe Fireworks,Adobe Illustrator,Adobe InDesign,Adobe Photoshop,Google Sketchup,Microsoft PowerPoint,Microsoft Word,ArcGIS,Google Earth,R,Endnote,Tropcrop,Microsoft Excel,Adobe Flash Professional,Microsoft Access,Microsoft OneNote,Microsoft Publisher,Scanner,Net-Print Black and White,Net-Print Color,CU Library,Windows Media Player,AutoCAD,Microsoft InfoPath,STATA/Intercooled,Adobe Media Encoder,Adobe Media Player,Adobe Premier Pro,Adobe Acrobat Reader,Stella,Miktex,Premier AT,Jaws",42.448915,-76.476471
805,"2010-10-11 15:21:29.0","2018-10-01 13:12:27.0","Mann Library Research","Mann Library Open Space","PC,iTunes,VideoLAN,Windows Media Player,Adobe Acrobat Professional,Adobe Bridge,Adobe Device Central,Adobe Dreamweaver,Adobe Extension Manager,Adobe Fireworks,Adobe Flash Professional,Adobe Illustrator,Adobe InDesign,Adobe Photoshop,AutoCAD,Google Sketchup,Microsoft Access,Microsoft OneNote,Microsoft PowerPoint,Microsoft Publisher,Microsoft Word,ArcGIS,Google Earth,R,Endnote,Tropcrop,Microsoft Excel,Scanner,Net-Print Black and White,Net-Print Color,CU Library,Mac,iMovie,Plotter,Adobe Acrobat Distiller,Microsoft InfoPath,Laptops,STATA/Intercooled,Adobe Media Encoder,Adobe Media Player,Adobe Premier Pro,Stella,Miktex,Premier AT,Jaws",42.448858,-76.476318
761,"2010-05-11 18:04:27.0","2018-08-28 11:43:20.0","Math Library","Math Library","PC,Adobe Acrobat Reader,Microsoft Access,Microsoft PowerPoint,Microsoft Word,Microsoft Excel,Scanner,Net-Print Black and White,Net-Print Color,Windows Media Player,Notetab Light,Asian Reading/Writing,CU Library,Laptops,VideoLAN,Google Sketchup,Microsoft OneNote,Google Earth,R,Microsoft Publisher,Premier AT,Adobe Acrobat Distiller,Adobe Acrobat Professional,Adobe AfterEffects,Adobe Bridge,Adobe Dreamweaver,Adobe Extension Manager,Adobe Fireworks,Adobe Flash Professional,Adobe Illustrator,Adobe InDesign,Adobe Media Encoder,Adobe Photoshop,Adobe Premier Pro,Miktex,STATA/Intercooled,Jaws",42.448341,-76.48004
1005,"2016-06-30 08:41:27.0","2016-08-19 10:38:55.0","McFaddin Hall",,"Adobe Acrobat Professional,Adobe Bridge,Adobe Dreamweaver,Adobe Illustrator,Adobe InDesign,Adobe Photoshop,Microsoft Access,Microsoft PowerPoint,Microsoft Word,Minitab,Microsoft Excel,CIT,PC",42.44703,-76.488518
753,"2010-05-11 15:57:43.0","2018-08-28 11:38:27.0","Music Library","Music Library","PC,Adobe Acrobat Reader,Microsoft Access,Microsoft PowerPoint,Microsoft Word,Microsoft Excel,Scanner,Net-Print Black and White,Net-Print Color,CU Library,Windows Media Player,Asian Reading/Writing,Laptops,Sibelius,VideoLAN,Google Sketchup,Google Earth,R,Microsoft InfoPath,Microsoft OneNote,Microsoft Publisher,Premier AT,Adobe Acrobat Distiller,Adobe Acrobat Professional,Adobe AfterEffects,Adobe Bridge,Adobe Dreamweaver,Adobe Fireworks,Adobe Flash Professional,Adobe Illustrator,Adobe InDesign,Adobe Media Encoder,Adobe Photoshop,Adobe Premier Pro,Adobe Extension Manager,Miktex,STATA/Intercooled,Jaws",42.449977,-76.483563
1041,"2016-07-06 14:54:32.0","2016-08-19 10:37:27.0","OADI","200 CCC","CIT",42.449259,-76.479173
752,"2010-05-11 14:55:34.0","2018-08-28 11:27:05.0","Olin Library","Olin Library","PC,Adobe Acrobat Reader,Microsoft Access,Microsoft PowerPoint,Microsoft Word,Scanner,Plotter,Net-Print Black and White,Net-Print Color,CU Library,Windows Media Player,Notetab Light,Asian Reading/Writing,Microsoft Excel,Laptops,Photoshop Elements,VideoLAN,Google Sketchup,Google Earth,R,Adobe Acrobat Professional,Microsoft InfoPath,Microsoft OneNote,Microsoft Publisher,Premier AT,Jaws,Mac,Adobe Acrobat Distiller,Adobe AfterEffects,Adobe Bridge,Adobe Dreamweaver,Adobe Fireworks,Adobe Flash Professional,Adobe Illustrator,Adobe InDesign,Adobe Media Encoder,Adobe Photoshop,Adobe Premier Pro,Miktex,STATA/Intercooled",42.447781,-76.484671
746,"2010-05-03 13:40:19.0","2017-09-01 08:32:21.0","Phillips Hall CIT Lab","318 Phillips Hall","PC,Audacity,Windows Media Player,Adobe Acrobat Professional,Microsoft Access,Microsoft OneNote,Microsoft PowerPoint,Microsoft Publisher,Microsoft Word,SSH Secure Shell,ANSYS,CES EduPack,Comsol,Matlab,National Instruments LabView,Solidworks,Minitab,R,Microsoft Excel,Scanner,Net-Print Black and White,Net-Print Color,CIT,Stella,Logism,Premier AT,Adobe AfterEffects,Adobe Dreamweaver,Adobe ExtendScript Toolkit,Adobe Fireworks,Adobe Illustrator,Adobe InDesign,Adobe Media Encoder,Adobe Photoshop,Adobe Premier Pro,AutoCAD",42.444443,-76.482238
1008,"2016-06-30 08:59:22.0","2016-08-19 10:38:26.0","Rose House",,"PC,Adobe Acrobat Professional,Adobe Bridge,Adobe Dreamweaver,Adobe Illustrator,Adobe InDesign,Adobe Photoshop,Microsoft Access,Microsoft PowerPoint,Microsoft Word,Minitab,Microsoft Excel,Net-Print Black and White,CIT",42.447793,-76.488801
800,"2010-08-09 16:12:24.0","2016-08-19 10:36:46.0","RPCC CIT Lab","Robert Purcell Community Center","PC,Windows Media Player,Adobe Acrobat Professional,Microsoft Access,Microsoft InfoPath,Microsoft OneNote,Microsoft PowerPoint,Microsoft Publisher,Microsoft Word,SSH Secure Shell,Minitab,Microsoft Excel,Miktex,Net-Print Black and White,Net-Print Color,Scanner,CIT,Dr. Java,Adobe Acrobat Distiller,Google Sketchup,Netbeans IDE,Google Earth,Premier AT,AutoCAD,Adobe Device Central,Adobe Dreamweaver,Adobe Acrobat Reader",42.455967,-76.477418
1043,"2017-08-24 14:52:47.0","2017-09-01 08:22:57.0","Upson CIT-Lab",225,"PC,Audacity,Premier AT,Adobe Acrobat Distiller,Adobe AfterEffects,Adobe Dreamweaver,Adobe ExtendScript Toolkit,Adobe Fireworks,Adobe Illustrator,Adobe InDesign,Adobe Media Encoder,Adobe Photoshop,Adobe Premier Pro,AutoCAD,Microsoft Access,Microsoft OneNote,Microsoft PowerPoint,Microsoft Publisher,Microsoft Word,SSH Secure Shell,ANSYS,CES EduPack,Comsol,Matlab,National Instruments LabView,Solidworks,Minitab,R,Stella,Microsoft Excel,Scanner,Net-Print Black and White,Net-Print Color,Logism,CIT",42.444033,-76.482483
795,"2010-07-21 16:40:24.0","2017-09-07 09:59:25.0","Uris Classroom","Uris Library","PC,Microsoft Access,Microsoft InfoPath,Microsoft OneNote,Microsoft PowerPoint,Microsoft Publisher,Microsoft Word,SSH Secure Shell,Minitab,Microsoft Excel,CIT,Audacity,Stella,Scanner,Adobe Acrobat Distiller,Premier AT,WindowEyes,Adobe AfterEffects,Adobe Bridge,Adobe Dreamweaver,Adobe ExtendScript Toolkit,Adobe Fireworks,Adobe Illustrator,Adobe InDesign,Adobe Photoshop,Adobe Premier Pro,AutoCAD,R",42.44758,-76.485263
1042,"2016-07-06 14:55:39.0","2016-08-19 10:40:39.0","Uris Kiosks","Austen Room","CIT",42.447643,-76.485344
755,"2010-05-11 16:14:20.0","2018-08-28 11:41:39.0","Uris Library","Uris Library","PC,Adobe Acrobat Reader,Microsoft Access,Microsoft PowerPoint,Microsoft Word,Scanner,Net-Print Black and White,Net-Print Color,CU Library,Windows Media Player,Notetab Light,Asian Reading/Writing,Microsoft Excel,Laptops,Microsoft OneNote,Adobe AfterEffects,Adobe Bridge,Adobe Dreamweaver,Adobe Encore,Adobe ExtendScript Toolkit,Adobe Extension Manager,Adobe Fireworks,Adobe Flash Professional,Adobe Illustrator,Adobe InDesign,Adobe Media Encoder,Adobe Photoshop,Adobe Premier Pro,Microsoft InfoPath,Microsoft Publisher,Dr. Java,VideoLAN,Google Sketchup,R,Premier AT,Mac,Google Earth,Adobe Acrobat Distiller,Adobe Acrobat Professional,Miktex,STATA/Intercooled,Jaws",42.447729,-76.485366
998,"2011-12-14 15:34:17.0","2018-09-07 11:35:09.0","Uris Library Tower Room","Uris Library","PC,Audacity,Microsoft Access,Microsoft InfoPath,Microsoft OneNote,Microsoft PowerPoint,Microsoft Publisher,Microsoft Word,SSH Secure Shell,Minitab,Microsoft Excel,Scanner,Net-Print Black and White,Net-Print Color,CIT,Premier AT,Adobe AfterEffects,Adobe InDesign,AutoCAD,Adobe Bridge,Adobe Dreamweaver,Adobe ExtendScript Toolkit,Adobe Photoshop,Adobe Premier Pro,R",42.447713,-76.485424
727,"2010-04-08 15:45:19.0","2017-10-05 09:33:50.0","Uris Library: CL3","Uris Library, Gallery Level","PC,Windows Media Player,Adobe Acrobat Distiller,Adobe Acrobat Professional,Adobe AfterEffects,Adobe Bridge,Adobe Contribute,Adobe Device Central,Adobe Dreamweaver,Adobe Drive,Adobe Encore,Adobe ExtendScript Toolkit,Adobe Extension Manager,Adobe Fireworks,Adobe Flash Professional,Adobe Illustrator,Adobe InDesign,Adobe LifeCycle Designer,Adobe Media Encoder,Adobe Media Player,Adobe OnLocation,Adobe Photoshop,Adobe Premier Pro,Adobe Soundbooth,Adobe Mocha for After Effects,Adobe Acrobat Reader,Microsoft Access,Microsoft PowerPoint,Microsoft Word,Microsoft Excel,Net-Print Black and White,Net-Print Color,Premier AT,Matlab,R,Microsoft InfoPath,Microsoft OneNote,Microsoft Publisher,WindowEyes,CU Library,Asian Reading/Writing,Stella",42.447587,-76.485218
793,"2010-07-21 16:26:35.0","2018-09-07 11:33:23.0","Willard Straight CIT Lab","Willard Straight Hall","PC,Windows Media Player,Adobe Acrobat Distiller,Adobe Acrobat Professional,Adobe Media Player,Microsoft Access,Microsoft InfoPath,Microsoft OneNote,Microsoft PowerPoint,Microsoft Publisher,Microsoft Word,SSH Secure Shell,Minitab,Refworks,Microsoft Excel,Miktex,Net-Print Black and White,Net-Print Color,Audacity,CIT,Google Earth,Google Sketchup,Dr. Java,Netbeans IDE,Scanner,Premier AT",42.446652,-76.485659
